{
  "_comment": "Doha venue coordinates for GCC Games 2026. Approximate (within ~500m) - sufficient for showing relative positions on a Daily Plan map.",
  "Al Duhail Sports Hall":                    {"lat": 25.3597, "lon": 51.4612, "district": "Al Duhail"},
  "Al Gharafa Sports Hall":                   {"lat": 25.3284, "lon": 51.4286, "district": "Al Gharafa"},
  "Aspire Dome":                              {"lat": 25.2604, "lon": 51.4426, "district": "Aspire Zone"},
  "Aspire Women's Sports Hall":               {"lat": 25.2620, "lon": 51.4395, "district": "Aspire Zone"},
  "Aspire Women’s Sports Hall":          {"lat": 25.2620, "lon": 51.4395, "district": "Aspire Zone"},
  "Hamad Aquatic Center":                     {"lat": 25.2628, "lon": 51.4380, "district": "Aspire Zone"},
  "Lusail Shooting Range":                    {"lat": 25.4943, "lon": 51.4923, "district": "Lusail"},
  "Qatar Billiards & Snooker Federation Hall":{"lat": 25.2773, "lon": 51.5285, "district": "Old Airport"},
  "Qatar Bowling Federation Hall":            {"lat": 25.2860, "lon": 51.5300, "district": "Old Airport"},
  "Qatar Equestrian Federation Grounds":      {"lat": 25.4090, "lon": 51.1900, "district": "Al Shahaniya"},
  "Qatar Sports Club":                        {"lat": 25.2735, "lon": 51.5283, "district": "Old Airport"}
}
